FACILITY_NAME,HCC_CODE,HLTH_AUTH,OWNERSHIP,STREET_ADDRESS,CITY,POSTAL,REGULATION,ACCRED_STATUS,BEDS_TOTAL,INCIDENT_OUTBREAK_100,AGE,FEMALE,AGE_85_PLUS,AGE_UNDER_65,STAY_LENGTH,DEPRESSION,ADL_DEPENDENT,CPS_SEVERE,DEMENTIA,ABS_PHYS_ABUSIVE,ISE,ISE_LOW,CMI,THERAPY_PT,THERAPY_RT,THERAPY_OT,MEDS_DEPRESSION,MEDS_ANTIPSYCHOTICS,RESTRAINTS,INSPECTIONS,latitude,longitude,Total Confirmed Cases,Total Deaths,outbreak,rooms_semi_binary,rooms_multi_binary,rooms_shared,resident_council,family_council,res_fam_council,beds_privatebinary,complaints_100,sub_complaints_100,incident_100sumXoutbreak,infractions_disease_100,infractions_100Xdisease
Adanac Park Lodge,919G3,Vancouver Coastal Health,PNP,851 Boundary Road,Vancouver,V5K4T2,Community Care & Assisted Living Act,Not Accredited,73,2.7,63.0,24.8,7.1,55.3,,19.1,14.7,8.5,39.6,7.8,2.4,61.1,0.49,0.0,72.4,0.0,59.7,58.9,3.3,2.0,49.2770771,-123.02459579999999,0.0,0.0,0,1,0,1,1,0,0,0,0.0,0.0,23.2,0.0,2.7397260273972597
Agassiz Seniors Community,936E0,Fraser Health,PFP,1525 MacKay Crescent,Agassiz,V0M1A3,Community Care & Assisted Living Act,Unknown,74,1.4,85.0,59.3,59.3,2.8,,5.8,34.2,37.4,60.5,11.6,2.7,45.8,0.56,4.2,94.2,0.0,15.3,3.1,0.0,2.0,49.2335015,-121.7681608,0.0,0.0,0,0,0,0,1,1,1,1,1.351351351351351,0.0,9.6,0.0,6.756756756756758
Arbutus Care Centre,9B814,Vancouver Coastal Health,PFP,4505 Valley Drive,Vancouver,V6L2L1,Hospital Act,Accredited,156,0.6,86.0,71.4,64.3,4.0,914.0,15.3,31.0,20.2,61.9,3.0,1.5,79.3,0.55,19.7,0.2,0.6,24.8,22.8,0.1,7.0,49.247881899999996,-123.15790849999999,1.0,0.0,1,1,0,1,1,1,1,1,0.641025641025641,0.0,12.1,0.0,5.769230769230768
Baillie House,9A6G9,Fraser Health,HA,11666 Laity St,Maple Ridge,V2X7G5,Hospital Act,Unknown,148,1.4,86.0,63.6,63.5,4.1,,17.3,24.7,20.1,50.9,5.8,2.8,47.5,0.58,13.1,53.0,6.7,38.2,19.6,5.0,2.0,49.2171373,-122.63189799999999,0.0,0.0,0,1,0,1,1,1,1,0,2.0270270270270268,1.351351351351351,13.5,0.0,1.351351351351351
Banfield Pavilion - Vancouver General Hospital,9A52F,Vancouver Coastal Health,HA,2785 Ash Street,Vancouver,V5Z1M9,Hospital Act,Accredited,156,0.0,82.0,54.0,49.8,7.5,916.0,25.7,44.1,32.3,47.7,6.3,2.6,52.6,0.64,23.5,0.6,40.7,39.7,13.3,10.8,4.0,49.2611939,-123.1187682,0.0,0.0,0,1,1,1,1,1,1,0,1.9230769230769231,0.0,8.9,0.0,0.641025641025641
Belvedere Care Centre,9BG96,Fraser Health,PFP,739 Alderson Avenue,Coquitlam,V3K7B3,Hospital Act,Unknown,123,0.0,88.0,75.7,69.6,0.4,660.0,22.4,33.3,29.4,62.5,8.8,3.9,26.5,0.58,8.1,75.0,0.9,45.8,12.1,3.3,4.0,49.24008325,-122.87856982297993,0.0,0.0,0,1,0,1,1,1,1,1,4.065040650406504,0.8130081300813009,8.9,0.8130081300813009,0.8130081300813009
Bevan Village,923E0,Fraser Health,PFP,33386 Bevan Ave.,Abbotsford,V2S5G6,Community Care & Assisted Living Act,Not Accredited,122,0.0,88.0,65.5,73.4,1.4,802.0,40.3,41.5,11.9,71.6,15.3,3.2,26.1,0.6,2.3,0.0,0.0,56.3,29.4,8.7,1.0,49.0413325,-122.2992395,0.0,0.0,0,1,0,1,1,1,1,1,0.819672131147541,0.819672131147541,8.200000000000001,0.0,2.459016393442623
Blenheim Lodge,999BD,Vancouver Coastal Health,PNP,3263 Blenheim Street,Vancouver,V6L2X7,Community Care & Assisted Living Act,Not Accredited,100,0.0,88.0,83.5,67.0,0.0,,22.5,46.2,44.9,69.5,4.7,2.2,59.3,0.6,0.0,89.6,0.0,45.7,17.0,2.4,6.0,49.2572761,-123.1791189,0.0,0.0,0,1,0,1,1,1,1,1,2.0,1.0,37.0,0.0,4.0
Braddan Private Hospital,91997,Vancouver Coastal Health,PFP,2450 West 2nd Ave,Vancouver,V6K1J6,Hospital Act,Not Accredited,62,0.0,85.0,78.7,63.6,1.6,,13.3,26.1,17.8,54.4,3.3,2.1,61.0,0.54,0.0,71.8,0.0,36.9,8.0,14.7,2.0,49.2697848,-123.1610416529879,0.0,0.0,0,1,0,1,1,1,1,1,0.0,0.0,11.2,0.0,0.0
Bradley Center,9A6JG,Fraser Health,HA,45600 Menholm Rd,Chilliwack,V2P1P7,Hospital Act,Unknown,90,0.0,87.0,69.3,69.5,5.2,648.0,19.0,25.2,19.7,48.0,4.1,2.7,46.9,0.59,0.3,41.8,0.7,51.4,25.4,9.0,1.0,49.16730645,-121.96485716719084,0.0,0.0,0,1,1,1,1,0,0,0,0.0,0.0,1.1,1.1111111111111112,4.4444444444444455
Broadway Pentecostal Lodge,9A9CE,Vancouver Coastal Health,PNP,1377 Lamey's Mill Rd,Vancouver,V6H3S9,Community Care & Assisted Living Act,Not Accredited,114,0.0,82.0,44.5,40.1,5.5,753.0,25.4,28.2,28.9,65.3,5.9,2.7,45.1,0.53,0.4,64.6,0.0,39.7,38.0,7.1,6.0,49.2674372,-123.13437250000001,0.0,0.0,0,0,0,0,1,0,0,0,2.631578947368421,1.7543859649122806,21.1,0.0,7.0175438596491215
Brookside Lodge,937F0,Fraser Health,PFP,19550 Fraser Highway,Surrey,V3S6K5,Community Care & Assisted Living Act,Unknown,103,1.0,80.0,59.5,47.1,15.1,946.0,11.5,18.4,19.1,66.5,8.9,2.9,41.9,0.6,12.4,53.8,1.7,54.3,21.4,4.2,8.0,49.114096999999994,-122.681031,0.0,0.0,0,1,0,1,1,1,1,1,0.0,0.0,12.7,0.0,12.621359223300969
Buchanan Lodge,9A500,Fraser Health,PNP,409 Blair Ave,New Westminster,V3L4A4,Community Care & Assisted Living Act,Unknown,112,2.7,86.0,69.2,60.0,3.3,,13.7,39.9,26.7,67.0,8.4,2.2,62.0,0.57,8.4,2.3,0.2,39.6,19.4,12.6,3.0,49.22877315,-122.89808629846813,0.0,0.0,0,1,0,1,1,1,1,0,0.8928571428571428,0.0,14.300000000000002,0.8928571428571428,1.7857142857142856
Capilano Care Centre,9C414,Vancouver Coastal Health,PFP,525 Clyde Avenue,West Vancouver,V7T1C4,Hospital Act & Community Care & Assisted Living Act,Accredited,205,0.5,84.0,69.0,54.6,4.0,,46.6,19.0,32.8,74.4,9.1,2.9,45.7,0.56,0.3,29.6,0.3,59.6,19.0,0.7,3.0,49.329066,-123.13,0.0,0.0,0,1,1,1,1,1,1,0,0.975609756097561,0.0,36.6,0.0,1.4634146341463417
CareLife Fleetwood,9A5AD,Fraser Health,HA,8265 159th Street,Surrey,V4N5T5,Hospital Act,Unknown,191,0.5,80.0,60.7,47.5,16.3,,12.9,43.5,29.6,37.5,7.8,2.3,57.9,0.67,26.6,47.6,21.7,43.1,22.3,4.6,1.0,49.1527,-122.7822,0.0,0.0,0,1,0,1,1,0,0,0,0.5235602094240838,0.0,2.6,0.0,0.0
Carlton Gardens Care Centre,99FE5,Fraser Health,PFP,4108 Norfolk Street,Burnaby,V5G0B4,Community Care & Assisted Living Act,Accredited,128,1.6,84.0,67.6,53.5,1.8,723.0,7.5,26.6,25.5,70.7,21.2,1.8,69.2,0.55,1.9,4.0,0.2,47.5,27.3,4.6,3.0,49.2550436,-123.0128497,0.0,0.0,0,1,0,1,1,1,1,1,0.0,0.0,12.6,0.78125,3.90625
Cartier House Seniors Community,992EJ,Fraser Health,PFP,1419 Cartier St,Coquitlam,V3K2C6,Community Care & Assisted Living Act,Unknown,78,2.6,88.0,83.1,68.8,1.6,346.0,40.2,24.8,26.7,74.3,10.6,2.6,51.1,0.59,4.2,27.3,0.6,49.2,23.7,8.3,2.0,49.28317715,-122.78734899022074,0.0,0.0,0,1,0,1,1,1,1,0,1.282051282051282,1.282051282051282,11.6,0.0,6.41025641025641
Cedarview Lodge,9AF9E,Vancouver Coastal Health,HA,1200 Cedar Village Close,North Vancouver,V7J3P3,Community Care & Assisted Living Act,Accredited,89,0.0,84.0,64.2,54.1,2.3,968.0,22.4,33.3,45.8,81.6,7.5,2.3,62.3,0.54,3.4,54.2,2.2,68.2,49.7,13.5,0.0,49.326053,-123.04,0.0,0.0,0,0,0,0,1,1,1,0,0.0,0.0,8.9,0.0,0.0
Central City Lodge,99A78,Vancouver Coastal Health,PNP,415 West Pender St,Vancouver,V6B1V2,Community Care & Assisted Living Act,Not Accredited,100,2.0,70.0,19.7,6.7,30.9,,32.0,15.6,24.2,52.8,9.5,3.0,39.1,0.54,19.8,65.3,7.3,58.9,34.2,9.2,2.0,49.28313320000001,-123.1119351,1.0,0.0,1,1,0,1,1,0,0,0,0.0,0.0,12.0,0.0,0.0
Cherington Place,9B889,Fraser Health,PFP,13453 111A Ave,Surrey,V3R2C5,Community Care & Assisted Living Act,Unknown,75,1.3,87.0,72.3,65.9,1.8,353.0,20.7,20.7,25.4,68.2,5.7,3.6,27.5,0.56,1.3,20.4,0.7,43.5,16.0,5.1,8.0,49.20565300000001,-122.84933400000001,0.0,0.0,0,1,0,1,1,0,0,0,4.0,1.3333333333333337,6.6,0.0,0.0
Christenson Village,92I30,Vancouver Coastal Health,PNP,585 Shaw Road,Gibsons,V0N1V8,Community Care & Assisted Living Act,Accredited,80,0.0,86.0,77.0,67.1,2.1,,29.3,32.3,49.5,75.8,7.9,2.6,54.4,0.57,8.5,4.8,0.0,65.9,15.6,14.3,2.0,49.4045,-123.51899999999999,0.0,0.0,0,0,0,0,1,1,1,0,0.0,0.0,12.5,0.0,5.0
Columbus Residence,9BHG7,Vancouver Coastal Health,PNP,704 West 69th Avenue,Vancouver,V6P2W3,Community Care & Assisted Living Act,Accredited,76,0.0,85.0,77.6,60.4,0.9,,18.8,35.6,25.7,69.3,7.6,3.3,35.6,0.54,14.2,60.1,0.7,35.3,23.6,20.4,3.0,49.208775,-123.12100000000001,0.0,0.0,0,1,0,1,1,1,1,0,1.3157894736842104,0.0,6.5,0.0,0.0
Cottage and Worthington Pavilions - MSA Hospital,9A6GA,Fraser Health,HA,33457 Cottage Lane,Abbotsford,V2S0B3,Hospital Act,Unknown,119,0.8,89.0,65.6,73.9,3.2,90.0,17.3,38.8,27.1,32.0,5.8,2.3,62.6,0.58,25.2,75.7,1.2,48.6,20.7,7.8,1.0,49.04118560000001,-122.29631640000001,7.0,1.0,1,1,1,1,1,1,1,0,2.5210084033613445,0.8403361344537815,0.0,0.0,0.0
Crescent Gardens,91GD7,Fraser Health,PFP,1222 King George Boulevard,Surrey,V4A9W6,Community Care & Assisted Living Act,Unknown,75,2.7,89.0,70.6,72.7,1.7,638.0,8.0,13.7,9.0,44.0,6.7,2.6,51.3,0.54,1.0,1.3,0.0,34.7,22.2,5.5,3.0,49.02467100000001,-122.76523600000002,0.0,0.0,0,1,0,1,1,1,1,1,2.666666666666667,0.0,15.900000000000002,0.0,5.333333333333334
Czorny Alzheimer Centre,9327A,Fraser Health,HA,16850 66th Avenue,Surrey,V3S5M1,Hospital Act,Unknown,72,0.0,83.0,54.3,40.4,2.2,656.0,4.6,27.2,60.2,65.1,12.6,1.5,74.3,0.53,0.8,59.4,0.0,34.9,45.7,0.0,2.0,49.122409999999995,-122.75509,1.0,0.0,1,0,0,0,0,0,0,0,0.0,0.0,15.3,0.0,1.3888888888888888
Dania Home,99C1E,Fraser Health,PNP,4175 Norland Avenue,Burnaby,V5G3S7,Community Care & Assisted Living Act,Accredited,102,1.0,83.0,64.7,56.3,9.9,,19.3,16.7,14.1,59.0,5.0,2.9,40.2,0.61,15.4,56.7,0.3,41.0,13.1,12.4,3.0,49.247584,-122.975187,1.0,0.0,1,0,0,0,1,1,1,0,0.9803921568627452,0.0,8.9,0.9803921568627452,0.9803921568627452
Delta View Life Enrichment Centre,9940H,Fraser Health,PFP,9321 Burns Drive,Delta,V4K3N3,Hospital Act,Accredited,212,0.0,85.0,66.2,55.0,2.8,942.0,26.4,39.7,48.4,73.9,18.7,1.9,69.6,0.61,38.2,0.0,0.0,47.0,15.9,0.3,1.0,49.09130415,-122.96486604215154,1.0,0.0,1,1,0,1,1,1,1,1,0.0,0.0,6.6,0.0,0.0
Dogwood Lodge,999F1,Vancouver Coastal Health,HA,500 West 57th Avenue,Vancouver,V6P6E8,Community Care & Assisted Living Act,Accredited,83,0.0,84.0,78.0,56.0,1.6,914.0,25.9,43.5,42.3,61.7,6.8,2.6,53.4,0.54,35.8,2.2,0.3,44.4,20.4,0.9,1.0,49.218578,-123.118,0.0,0.0,0,0,0,0,1,1,1,0,0.0,0.0,3.6,0.0,0.0
Dufferin Care Centre,919C4,Fraser Health,PFP,1131 Dufferin St,Coquitlam,V3B7X5,Hospital Act,Accredited,153,0.7,84.0,73.9,53.6,1.4,601.0,19.0,39.1,49.8,77.3,15.6,0.9,88.4,0.57,0.0,55.3,0.0,43.1,27.3,4.6,3.0,49.2791682,-122.80399579999998,22.0,4.0,1,1,0,1,0,0,0,1,2.6143790849673203,0.6535947712418301,17.0,0.0,3.92156862745098
Eagle Ridge Manor - Port Moody,9C6EC,Fraser Health,HA,475 Guildford Way,Port Moody,V3H3W9,Hospital Act,Unknown,75,0.0,86.0,55.7,61.1,3.0,,31.6,52.5,33.8,48.7,1.9,3.6,30.0,0.63,26.2,57.4,7.6,41.8,14.0,7.4,0.0,49.28553745,-122.82369973641943,0.0,0.0,0,1,0,1,1,1,1,0,1.3333333333333337,1.3333333333333337,0.0,0.0,0.0
Eden Care Centre,9AB4F,Fraser Health,PFP,9100 Charles Street,Chilliwack,V2P5K6,Community Care & Assisted Living Act,Not Accredited,89,4.5,88.0,64.6,66.1,0.2,586.0,16.8,3.5,20.4,57.1,2.7,2.5,64.6,0.48,0.0,76.1,0.0,43.4,35.9,8.5,7.0,49.167238299999994,-121.9419001,8.0,1.0,1,0,0,0,1,1,1,0,7.865168539325843,3.3707865168539324,16.8,1.1235955056179776,7.865168539325843
Elim Village - The Harrison / Harrison West,9371A,Fraser Health,PNP,9025 160 Street,Surrey,V4N2X7,Community Care & Assisted Living Act,Accredited,194,2.1,87.0,67.5,67.2,2.1,772.0,22.9,36.8,23.5,63.2,11.8,2.8,46.5,0.61,0.7,6.4,0.0,42.6,24.2,4.2,6.0,49.167023,-122.7815006,1.0,0.0,1,1,0,1,1,1,1,1,1.0309278350515465,0.0,10.3,0.0,0.0
Evergreen - The Terraces / The Pointe,99420,Fraser Health,PNP,1550 Oxford St,White Rock,V4B3R5,Community Care & Assisted Living Act,Accredited,252,2.4,87.0,65.1,64.7,1.2,861.0,12.3,18.1,21.2,66.3,14.7,2.5,53.2,0.56,0.3,0.0,0.0,50.1,33.9,8.3,12.0,49.0264665,-122.8122029,0.0,0.0,0,0,0,0,1,1,1,1,1.5873015873015872,0.3968253968253968,15.900000000000002,0.0,1.1904761904761905
Evergreen Extended Care - Powell River Hospital,9A551,Vancouver Coastal Health,HA,4970 Joyce Ave.,Powell River,V8A5P2,Hospital Act,Accredited,75,1.3,84.0,63.1,61.1,4.1,777.0,11.3,32.5,27.4,42.0,5.7,2.2,59.0,0.58,1.9,0.5,0.5,50.9,34.8,24.4,2.0,49.8489957,-124.52262549999999,0.0,0.0,0,1,1,1,1,1,1,0,0.0,0.0,4.0,0.0,5.333333333333334
Evergreen House - Lions Gate Hospital,9A55C,Vancouver Coastal Health,HA,231 East 15th Street,North Vancouver,V7L2L7,Hospital Act,Accredited,289,0.3,84.0,63.7,55.8,5.7,575.0,23.6,36.4,28.0,55.9,5.6,3.0,39.1,0.61,28.2,14.6,6.9,55.5,28.6,1.6,3.0,49.32097835,-123.06767192461285,1.0,0.0,1,1,1,1,1,1,1,0,0.0,0.0,12.8,0.0,3.1141868512110724
Fair Haven - Burnaby,99C49,Fraser Health,PNP,7557 Sussex Ave.,Burnaby,V5J3V6,Community Care & Assisted Living Act,Accredited,100,1.0,87.0,66.8,63.7,0.8,,16.7,43.8,48.7,57.8,11.4,2.2,58.5,0.57,9.2,84.3,0.0,36.6,25.4,12.6,3.0,49.21526995,-123.0059056805597,0.0,0.0,0,0,0,0,1,1,1,0,2.0,1.0,25.0,1.0,4.0
Fellburn Care Centre,9A575,Fraser Health,HA,6050 Hastings St.,Burnaby,V5B1R6,Hospital Act,Accredited,81,0.0,87.0,66.8,64.6,7.3,606.0,15.4,43.0,35.5,51.5,14.0,2.2,59.7,0.65,14.7,39.6,4.4,31.7,10.4,2.4,2.0,49.280316799999994,-122.9624341,0.0,0.0,0,1,1,1,1,1,1,0,3.7037037037037033,0.0,4.9,1.2345679012345678,4.938271604938271
Finnish Home,999CF,Vancouver Coastal Health,PNP,2288 Harrison Drive,Vancouver,V5P2P6,Community Care & Assisted Living Act,Not Accredited,64,1.6,86.0,66.7,60.1,1.1,902.0,30.4,36.5,27.7,62.7,5.4,2.2,61.2,0.59,20.4,0.0,0.4,54.6,25.4,6.3,1.0,49.20822879999999,-123.06074540000002,0.0,0.0,0,0,0,0,1,1,1,0,0.0,0.0,12.5,0.0,1.5625
Fleetwood Place,993E2,Fraser Health,PFP,16011 83rd Ave,Surrey,V4N0N2,Community Care & Assisted Living Act,Accredited,111,0.0,88.0,61.7,66.7,2.2,,9.5,37.8,38.1,50.0,7.4,2.6,53.7,0.58,50.3,65.9,0.5,54.8,28.2,19.0,2.0,49.153895,-122.778049,0.0,0.0,0,0,0,0,1,1,1,1,0.9009009009009008,0.0,11.7,0.0,3.603603603603604
Fort Langley Seniors Community,9ACEC,Fraser Health,PFP,8838 Glover Road,Langley,V1M2R4,Hospital Act,Unknown,96,0.0,90.0,66.2,75.7,0.4,,17.0,38.3,31.6,73.5,5.3,2.6,37.7,0.6,25.4,69.8,0.0,47.5,20.1,0.0,10.0,49.113251299999995,-122.6442649,0.0,0.0,0,1,0,1,1,1,1,1,4.166666666666666,1.0416666666666663,12.4,1.0416666666666663,3.125
Foyer Maillard,992J9,Fraser Health,PNP,1010 Alderson Avenue,Coquitlam,V3K1W1,Community Care & Assisted Living Act,Not Accredited,125,0.0,87.0,69.4,62.0,1.0,570.0,32.4,24.5,24.5,64.1,10.4,2.6,50.6,0.56,24.3,27.6,0.4,43.2,26.2,4.5,1.0,49.23926289999999,-122.8662457,0.0,0.0,0,0,0,0,1,1,1,0,0.0,0.0,3.2,0.0,0.8
Fraser Hope Lodge,9BJC6,Fraser Health,HA,1275-7th Avenue,Hope,V0X1L4,Hospital Act,Unknown,50,0.0,89.0,53.6,70.0,3.7,,34.6,18.7,33.0,67.0,8.8,3.1,47.3,0.59,22.0,67.0,4.9,58.8,22.5,2.1,1.0,49.3773925,-121.42378463532327,0.0,0.0,0,1,0,1,1,1,1,0,0.0,0.0,6.0,0.0,6.0
Fraserview,99BEI,Vancouver Coastal Health,PFP,9580 Williams Road,Richmond,V7A1H2,Community Care & Assisted Living Act,Accredited,101,1.0,90.0,83.7,80.7,0.2,,18.5,49.0,19.0,75.1,3.3,1.9,71.1,0.57,1.8,1.0,0.0,21.1,23.1,3.1,3.0,49.140789700000006,-123.11415559999999,0.0,0.0,0,1,0,1,1,1,1,0,0.0,0.0,7.0,0.0,0.0
George Derby Centre,9BC9J,Fraser Health,PNP,7550 Cumberland St,Burnaby,V3N3X5,Community Care & Assisted Living Act,Accredited,300,0.0,87.0,32.8,65.9,1.4,699.0,19.2,28.8,22.1,60.5,18.1,2.2,60.9,0.56,0.9,9.3,0.6,40.4,26.1,5.9,9.0,49.23360200000001,-122.91648799999999,8.0,1.0,1,1,0,1,1,1,1,0,1.6666666666666667,0.6666666666666667,16.0,0.6666666666666667,10.666666666666666
George Pearson Centre,9A5BF,Vancouver Coastal Health,HA,700 West 57th Ave.,Vancouver,V6P1S1,Hospital Act,Accredited,114,0.0,59.0,24.4,2.9,67.5,,15.4,64.6,31.3,3.9,2.5,3.1,29.4,0.89,54.5,56.1,32.4,47.4,24.7,18.6,3.0,49.21877,-123.121144,0.0,0.0,0,1,1,1,1,0,0,0,0.8771929824561403,0.8771929824561403,16.6,0.0,7.0175438596491215
German Canadian Care Home,999D6,Vancouver Coastal Health,PNP,2010 Harrison Drive,Vancouver,V5P2P6,Community Care & Assisted Living Act,Accredited,132,0.0,83.0,47.6,52.5,5.4,688.0,14.2,36.4,37.3,52.3,7.2,2.5,42.4,0.52,37.5,76.5,42.3,40.1,40.5,10.0,7.0,49.2098793,-123.0651145,1.0,0.0,1,1,0,1,1,1,1,0,0.0,0.0,16.0,0.0,0.7575757575757576
Glenwood Seniors Community,923FA,Fraser Health,PFP,1458 Glenwood Dr,Agassiz,V0M1A3,Community Care & Assisted Living Act,Unknown,44,0.0,89.0,64.8,73.0,0.5,638.0,25.0,12.9,22.6,80.6,21.8,2.8,50.8,0.58,4.8,81.5,0.0,38.7,7.3,0.0,4.0,49.2308549,-121.75817859999998,0.0,0.0,0,0,0,0,1,1,1,1,2.272727272727273,0.0,6.9,0.0,22.72727272727273
Guildford Seniors Village,926CA,Fraser Health,PFP,14568 104a Ave.,Surrey,V3R1R3,Community Care & Assisted Living Act,Accredited,101,0.0,83.0,44.9,50.7,4.4,873.0,22.1,33.3,40.4,69.7,11.1,2.2,61.1,0.6,0.0,62.2,0.0,44.2,26.5,15.1,7.0,49.192422,-122.8183,1.0,0.0,1,0,0,0,1,1,1,1,0.0,0.0,16.9,0.0,0.0
Haro Park Centre,9A4I4,Vancouver Coastal Health,PNP,1233 Haro Street,Vancouver,V6E3Y5,Community Care & Assisted Living Act,Unknown,154,0.0,84.0,73.5,55.1,4.3,839.0,36.1,21.4,22.1,67.1,8.7,3.3,33.5,0.52,3.9,83.7,1.1,53.3,34.1,7.2,7.0,49.285771000000004,-123.12899999999999,89.0,13.0,1,0,0,0,1,0,0,0,1.2987012987012987,0.0,39.5,0.0,2.5974025974025974
Hawthorne Seniors Care Community,992JA,Fraser Health,PNP,2111 Hawthorne Ave,Port Coquitlam,V3C1W3,Hospital Act,Unknown,131,0.8,82.0,55.5,49.0,6.6,772.0,12.2,41.9,44.1,53.7,12.8,2.2,65.6,0.59,0.0,56.9,0.0,41.9,32.7,2.2,1.0,49.2570112,-122.7792222,0.0,0.0,0,1,0,1,1,1,1,0,0.0,0.0,21.3,0.7633587786259541,6.106870229007634
Heritage Village,9C5BC,Fraser Health,HA,7525 Topaz Dr,Chilliwack,V2R3C9,Hospital Act,Accredited,100,2.0,85.0,54.4,58.4,3.4,940.0,11.8,31.0,43.4,64.8,12.7,2.3,55.2,0.57,3.4,58.0,0.0,54.9,27.3,3.4,2.0,49.1407098,-121.9665418,0.0,0.0,0,1,1,1,1,1,1,0,0.0,0.0,25.0,1.0,9.0
Hilltop House,9AIC3,Vancouver Coastal Health,HA,38146 Behrner Drive,Squamish,V8B0C8,Community Care & Assisted Living Act,Accredited,86,0.0,80.0,62.5,50.0,12.5,817.0,35.4,27.7,18.0,59.2,6.1,1.7,68.5,0.56,5.1,4.8,0.0,49.8,16.6,1.4,3.0,49.699647999999996,-123.14,0.0,0.0,0,1,0,1,1,1,1,0,0.0,0.0,15.2,0.0,4.651162790697675
Hilton Villa Seniors Community,917D8,Fraser Health,PFP,13525 Hilton Rd,Surrey,V3R5J3,Community Care & Assisted Living Act,Accredited,157,1.9,86.0,69.8,62.9,5.1,749.0,20.7,33.2,37.5,66.5,12.7,2.9,43.1,0.59,45.3,3.8,0.0,45.8,10.2,6.7,10.0,49.20242145,-122.84672725264092,0.0,0.0,0,1,0,1,1,1,1,1,1.9108280254777068,0.6369426751592357,14.0,0.0,0.6369426751592357
Hogg and Weatherby Pavilions - Peace Arch Hospital,9A58I,Fraser Health,HA,15521 Russell Ave.,White Rock,V4B2R4,Hospital Act,Unknown,234,0.9,90.0,73.9,76.9,2.2,785.0,17.7,28.0,24.2,48.3,8.6,2.6,52.3,0.57,15.5,67.0,12.4,48.2,18.8,3.2,2.0,49.03015955,-122.79236955,0.0,0.0,0,1,1,1,1,1,1,0,0.8547008547008548,0.0,11.6,0.0,1.282051282051282
Holy Family Hospital,9A5D8,Vancouver Coastal Health,PNP,7801 Argyle St.,Vancouver,V5P3L6,Hospital Act,Accredited,126,1.6,85.0,79.1,58.3,4.0,761.0,24.8,36.6,29.7,52.8,3.9,2.8,48.6,0.62,7.3,9.6,7.3,49.2,17.5,2.9,2.0,49.213284,-123.073098,88.0,21.0,1,1,1,1,1,1,1,0,0.0,0.0,5.6,0.0,3.1746031746031744
Holyrood Manor,91842,Fraser Health,PFP,22710 Holyrood Ave,Maple Ridge,V2X3E6,Hospital Act,Accredited,125,0.8,86.0,81.5,58.3,3.3,,31.0,19.9,25.2,71.9,11.9,2.3,52.8,0.61,0.0,70.6,0.0,50.1,20.0,1.2,1.0,49.2122959,-122.59390420000001,0.0,0.0,0,1,0,1,0,1,0,1,0.0,0.0,17.6,0.8,1.6
Inglewood Care Centre,999J9,Vancouver Coastal Health,PFP,725 Inglewood Avenue,West Vancouver,V7T1X5,Hospital Act & Community Care & Assisted Living Act,Unknown,230,0.0,86.0,65.4,66.4,2.1,,29.2,30.0,38.9,76.3,11.9,2.9,40.9,0.54,6.3,22.5,0.0,53.4,19.9,3.8,13.0,49.3354367,-123.1356688,1.0,0.0,1,1,0,1,1,1,1,0,2.1739130434782608,1.7391304347826086,26.000000000000004,0.0,3.4782608695652173
Jackman Manor,9ADHD,Fraser Health,PNP,27477 28 Ave,Aldergrove,V4W3L9,Community Care & Assisted Living Act,Not Accredited,88,0.0,88.0,70.1,72.0,1.4,,22.6,28.7,36.4,77.7,7.3,2.2,58.7,0.54,7.9,2.1,0.0,44.9,15.5,4.9,3.0,49.0538233,-122.46304029999999,0.0,0.0,0,0,0,0,1,1,1,0,2.272727272727273,1.1363636363636365,1.1,0.0,10.227272727272727
Jubilee Multi Generational Housing Society,99C25,Fraser Health,PNP,3460 Kalyk Avenue,Burnaby,V5G3B2,Community Care & Assisted Living Act,Not Accredited,60,3.3,89.0,68.9,71.6,0.0,656.0,20.9,37.8,47.4,28.3,4.3,3.4,33.5,0.59,12.6,1.3,0.0,40.0,7.7,1.3,3.0,49.2528169,-123.01300249999998,0.0,0.0,0,1,1,1,1,1,1,0,5.0,1.6666666666666667,21.7,5.0,13.333333333333332
KinVillage West Court,9A4JH,Fraser Health,PNP,5410 10th Ave.,Delta,V4M3X8,Community Care & Assisted Living Act,Accredited,100,0.0,90.0,67.1,76.3,1.4,,21.8,24.1,34.7,60.3,5.0,2.4,58.8,0.57,17.6,65.3,2.1,40.6,16.2,8.0,0.0,49.021494,-123.073658,0.0,0.0,0,0,0,0,1,0,0,0,1.0,0.0,4.0,0.0,0.0
Kinsmen Lodge,9942B,Fraser Health,PNP,9650 137A Street,Surrey,V3T4H9,Community Care & Assisted Living Act,Accredited,157,0.0,86.0,60.5,58.3,5.8,,25.8,33.2,20.6,49.9,14.6,2.3,59.4,0.6,0.9,82.0,0.0,40.9,15.8,1.9,6.0,49.1777346,-122.84179950000001,0.0,0.0,0,1,0,1,1,1,1,0,1.9108280254777068,0.0,8.3,0.0,0.0
Kiwanis Care Centre,9AD1I,Fraser Health,PNP,35 Clute Street,New Westminster,V3L1Z5,Community Care & Assisted Living Act,Accredited,75,1.3,88.0,94.6,69.5,0.6,,20.9,28.0,20.9,57.1,6.7,3.2,31.3,0.65,55.6,70.9,34.7,50.4,13.0,4.5,1.0,49.223211799999994,-122.91508780000001,0.0,0.0,0,1,0,1,1,1,1,0,0.0,0.0,13.3,0.0,1.3333333333333337
Kopernik Lodge,99A2I,Vancouver Coastal Health,PNP,3150 Rosemont Drive,Vancouver,V5S2C9,Community Care & Assisted Living Act,Not Accredited,87,1.1,87.0,86.4,65.2,2.6,951.0,34.3,38.5,26.4,53.3,12.4,2.2,56.7,0.59,1.6,12.7,0.5,50.7,29.6,11.7,3.0,49.21522,-123.039,0.0,0.0,0,1,0,1,1,1,1,0,2.2988505747126435,1.1494252873563218,24.0,0.0,4.597701149425287
Lakeshore Care Centre,992HG,Fraser Health,PFP,657 Gatensbury Street,Coquitlam,V3J5G9,Hospital Act,Not Accredited,56,0.0,85.0,70.4,64.5,6.5,,21.7,43.4,44.8,78.3,12.6,2.2,60.1,0.6,0.7,11.9,0.0,36.4,17.0,11.2,2.0,49.2595472,-122.85635159999998,0.0,0.0,0,1,0,1,1,1,1,1,1.7857142857142856,1.7857142857142856,3.6,0.0,5.357142857142857
Lakeview Care Centre,9C477,Vancouver Coastal Health,PFP,3490 Porter Street,Vancouver,V5N5W4,Hospital Act,Accredited,177,1.1,87.0,64.3,69.3,1.6,,23.8,21.8,29.3,58.5,9.6,4.1,20.0,0.56,0.0,2.3,0.0,34.7,10.6,1.4,4.0,49.25348995,-123.06648814723715,0.0,0.0,0,1,0,1,1,1,1,0,0.0,0.0,6.699999999999998,0.5649717514124294,3.389830508474577
Langley Gardens,925CA,Fraser Health,PFP,8888 202nd Street,Langley,V1M4A7,Community Care & Assisted Living Act,Accredited,92,1.1,89.0,69.5,81.0,1.2,535.0,12.7,33.9,15.1,60.6,4.0,2.3,59.0,0.58,38.1,40.5,5.3,33.3,9.8,0.0,4.0,49.1663494,-122.66096909999999,6.0,0.0,1,1,0,1,1,1,1,1,1.0869565217391304,0.0,18.5,0.0,1.0869565217391304
Langley Lodge,98JIE,Fraser Health,PNP,5451-204th St,Langley,V3A5M9,Community Care & Assisted Living Act,Accredited,139,0.0,88.0,66.2,71.4,2.3,831.0,18.9,29.8,29.2,57.9,10.7,2.4,58.3,0.57,8.5,11.0,0.2,47.2,18.1,1.4,2.0,49.10156729999999,-122.6573035,68.0,26.0,1,1,0,1,1,1,1,1,0.0,0.0,0.7,0.7194244604316548,5.755395683453237
Langley Memorial Hospital ECU,9A5E0,Fraser Health,HA,22051 Fraser Hwy,Langley,V3A4H4,Hospital Act,Unknown,230,0.4,89.0,72.1,71.2,3.0,597.0,13.7,26.9,25.8,54.2,7.1,2.6,53.1,0.57,6.5,52.3,4.0,46.7,23.3,2.4,6.0,49.0944775,-122.6116674454287,3.0,1.0,1,1,1,1,1,0,0,0,2.1739130434782608,0.43478260869565216,1.7000000000000002,0.43478260869565216,3.9130434782608687
Laurel Place,9359A,Fraser Health,PFP,9688 137A St,Surrey,V3T4H9,Community Care & Assisted Living Act,Accredited,215,0.0,85.0,58.4,60.4,5.9,899.0,18.9,37.9,25.2,58.0,6.1,2.4,60.7,0.6,16.7,1.7,0.2,39.6,15.6,16.6,4.0,49.1784219,-122.8417807,0.0,0.0,0,1,0,1,1,1,1,1,0.4651162790697674,0.0,8.8,0.0,0.9302325581395348
Little Mountain Place,9BA01,Vancouver Coastal Health,PNP,330 East 36th Avenue,Vancouver,V5W3Z4,Community Care & Assisted Living Act,Not Accredited,117,1.7,84.0,55.5,51.4,3.0,,22.2,33.1,21.0,60.6,10.3,2.4,57.4,0.53,0.2,1.3,0.4,37.1,18.5,9.3,3.0,49.2376636,-123.09985320000001,1.0,0.0,1,0,0,0,1,1,1,0,0.8547008547008548,0.0,34.2,0.0,1.7094017094017095
Louis Brier Home and Hospital,999G3,Vancouver Coastal Health,PNP,1055 West 41st Ave,Vancouver,V6M1W9,Hospital Act & Community Care & Assisted Living Act,Accredited,215,0.9,85.0,61.4,59.0,3.9,,18.2,45.7,33.9,57.4,13.4,1.9,69.1,0.58,15.9,20.7,8.2,51.7,34.7,1.9,6.0,49.2346366,-123.12927274582044,0.0,0.0,0,1,0,1,1,1,1,0,0.4651162790697674,0.4651162790697674,20.9,0.0,7.441860465116278
Lynn Valley Care Centre,9B5JB,Vancouver Coastal Health,PFP,"1070 Lynn Valley Rd, North",North Vancouver,V7J1Z8,Hospital Act & Community Care & Assisted Living Act,Accredited,201,0.0,87.0,64.3,69.3,2.4,,19.9,31.3,16.9,62.9,7.7,2.6,47.3,0.56,7.2,8.2,0.0,58.2,25.6,8.7,3.0,49.33396,-123.045,79.0,20.0,1,1,0,1,1,1,1,1,0.0,0.0,4.5,0.0,0.9950248756218906
MSA Manor,98H7B,Fraser Health,PNP,2510 Gladwin Rd,Abbotsford,V2T3N9,Community Care & Assisted Living Act,Accredited,34,0.0,90.0,61.5,73.5,0.3,944.0,21.3,27.9,23.5,51.5,4.4,2.6,47.8,0.58,1.5,5.1,0.0,61.0,36.6,2.0,1.0,49.04747485,-122.31462286620344,1.0,0.0,1,0,0,0,1,0,0,0,0.0,0.0,11.7,2.9411764705882346,5.882352941176472
Maple Ridge Seniors Village,9376A,Fraser Health,PFP,22141 - 119th Avenue,Maple Ridge,V2X2Y7,Community Care & Assisted Living Act,Accredited,108,0.0,85.0,60.1,57.5,1.5,614.0,23.9,30.9,41.2,77.0,14.9,2.3,62.9,0.57,5.8,10.3,0.3,35.8,27.3,9.5,6.0,49.2193789,-122.6084592,1.0,0.0,1,0,0,0,1,1,1,1,6.481481481481482,2.7777777777777777,34.3,0.0,1.851851851851852
Maplewood House,9BE34,Fraser Health,PNP,1919 Jackson St.,Abbotsford,V2S2Z8,Community Care & Assisted Living Act,Accredited,78,0.0,85.0,59.8,58.0,6.2,607.0,18.4,37.5,39.8,66.6,18.1,1.9,66.2,0.6,4.0,33.1,2.0,53.5,36.3,12.8,3.0,49.03660720000001,-122.30914840000001,0.0,0.0,0,0,0,0,1,0,0,0,1.282051282051282,0.0,12.9,1.282051282051282,2.5641025641025643
Menno Home,98H8D,Fraser Health,PNP,32910 Brundige Ave,Abbotsford,V2S1N2,Community Care & Assisted Living Act,Accredited,196,0.0,87.0,64.1,62.8,2.2,780.0,22.4,15.1,23.9,81.8,16.6,3.0,44.3,0.56,5.9,84.3,4.4,58.0,12.3,3.6,3.0,49.0401555,-122.3081538,0.0,0.0,0,1,0,1,1,1,1,0,1.020408163265306,0.0,11.7,0.0,0.0
Menno Hospital,9A6H1,Fraser Health,PNP,32945 Marshall Road,Abbotsford,V2S1K1,Hospital Act,Accredited,151,0.7,88.0,76.3,73.2,3.3,834.0,24.0,25.7,18.0,61.1,8.5,2.3,57.9,0.59,10.6,70.7,6.4,51.8,5.1,4.4,0.0,49.03929855,-122.31110698892836,0.0,0.0,0,1,1,1,1,1,1,0,0.0,0.0,12.6,0.0,0.0
Minoru Residence,9A5B4,Vancouver Coastal Health,HA,7333 Gollner Avenue,Richmond,V6Y0J1,Hospital Act,Accredited,250,0.8,84.0,58.3,57.2,5.5,,17.5,52.7,32.8,38.5,3.8,2.1,63.5,0.6,32.8,1.8,14.9,40.2,24.0,6.2,2.0,49.16897,-123.15,0.0,0.0,0,1,0,1,1,1,1,0,0.0,0.0,5.6,0.0,3.2
Morgan Place,926A0,Fraser Health,PFP,3288 156a St,Surrey,V3Z9T1,Community Care & Assisted Living Act,Accredited,141,0.0,90.0,55.4,75.3,1.1,458.0,23.7,33.1,25.1,67.1,10.3,2.6,49.2,0.6,38.9,63.4,0.0,57.0,13.8,9.1,1.0,49.062332,-122.79006899999999,0.0,0.0,0,1,0,1,1,1,1,1,0.0,0.0,2.8,0.0,0.0
Mount Saint Joseph Hospital,9A54J,Vancouver Coastal Health,PNP,3080 Prince Edward Street,Vancouver,V5T3N4,Hospital Act,Accredited,99,1.0,88.0,72.8,72.3,1.7,,22.3,41.5,40.2,58.8,5.0,1.8,71.9,0.62,16.5,5.2,18.1,31.5,15.4,2.1,1.0,49.257699,-123.09635800000001,0.0,0.0,0,1,1,1,1,1,1,0,0.0,0.0,8.1,0.0,0.0
Mountain View Manor - Delta Hospital,9A56E,Fraser Health,HA,5800 Mountain View Boulevard,Delta,V4K3V6,Hospital Act,Unknown,92,0.0,90.0,64.6,73.6,1.1,911.0,11.5,44.7,28.1,45.3,5.0,1.7,72.5,0.58,21.6,63.0,1.5,37.9,22.0,3.6,1.0,49.0856824,-123.06125243089485,0.0,0.0,0,1,1,1,1,1,1,0,0.0,0.0,4.4,0.0,0.0
New Vista Care Home,99C37,Fraser Health,PNP,7550 Rosewood Street,Burnaby,V5E3Z3,Community Care & Assisted Living Act,Accredited,236,0.0,83.0,62.5,49.3,4.7,,14.4,29.5,31.9,72.9,13.3,2.7,48.8,0.52,21.0,37.6,0.0,52.4,32.8,8.1,5.0,49.223943799999994,-122.94541269093858,20.0,3.0,1,0,0,0,1,1,1,0,1.2711864406779665,0.42372881355932196,24.1,0.0,6.779661016949151
Nicola Lodge,93GBA,Fraser Health,PFP,2240 Hawkins St.,Port Coquitlam,V3B0M2,Community Care & Assisted Living Act,Unknown,230,0.9,84.0,58.6,56.1,4.3,620.0,18.9,11.8,18.4,60.9,7.0,1.7,80.5,0.58,16.4,55.4,2.7,41.6,12.5,4.0,6.0,49.255787,-122.737523,1.0,0.0,1,1,0,1,0,0,0,1,1.7391304347826086,0.43478260869565216,14.8,0.0,0.43478260869565216
Normanna Rest Home,9C489,Fraser Health,PNP,7725-4th St,Burnaby,V3N5B6,Community Care & Assisted Living Act,Unknown,100,0.0,86.0,80.2,61.0,2.5,,27.3,34.9,20.6,62.8,16.1,2.9,38.8,0.6,13.5,49.5,0.8,44.8,25.9,9.4,1.0,49.22202645,-122.92761074114857,0.0,0.0,0,1,0,1,1,1,1,0,0.0,0.0,3.0,0.0,1.0
Northcrest Care Centre,9C5G2,Fraser Health,PFP,6771-120th Street,Delta,V4E2A7,Community Care & Assisted Living Act,Accredited,106,0.0,84.0,67.6,51.7,6.2,278.0,52.9,45.2,30.4,70.1,16.1,1.8,69.7,0.58,0.7,84.9,0.2,70.5,22.5,10.4,5.0,49.126449,-122.891122,0.0,0.0,0,1,0,1,1,1,1,0,0.0,0.0,4.699999999999998,0.0,0.0
Peace Portal Seniors Village,9C47I,Fraser Health,PFP,15441 - 16th Avenue,Surrey,V4A8T8,Community Care & Assisted Living Act,Accredited,84,1.2,87.0,71.3,71.3,0.5,535.0,35.5,25.5,35.5,61.7,8.5,2.9,47.5,0.53,3.5,48.2,0.0,46.1,15.2,15.8,4.0,49.031282,-122.79452959999999,0.0,0.0,0,1,0,1,1,1,1,1,0.0,0.0,23.9,0.0,4.761904761904762
Pinegrove Place,9AG59,Vancouver Coastal Health,PNP,11331 Mellis Drive,Richmond,V6X1L8,Community Care & Assisted Living Act,Accredited,76,0.0,84.0,58.6,57.4,4.0,,24.5,46.2,37.4,72.0,12.6,1.8,69.8,0.59,0.3,65.4,0.3,46.9,20.1,9.2,5.0,49.186792499999996,-123.09844709999999,0.0,0.0,0,0,0,0,1,1,1,0,0.0,0.0,1.3,0.0,2.631578947368421
Point Grey Private Hospital,9995A,Vancouver Coastal Health,PFP,2423 Cornwall Avenue,Vancouver,V6K1B9,Hospital Act,Not Accredited,72,1.4,86.0,60.4,64.3,0.4,749.0,30.5,29.7,27.1,75.1,12.6,3.6,29.0,0.59,3.3,0.0,1.1,55.8,24.7,32.7,1.0,49.2724948,-123.1496031,0.0,0.0,0,1,0,1,1,0,0,1,0.0,0.0,4.199999999999998,0.0,2.7777777777777777
Purdy Pavilion - UBC Hospital,9A5C6,Vancouver Coastal Health,HA,2221 Wesbrook Mall,Vancouver,V6T1Z9,Hospital Act,Accredited,199,0.0,81.0,55.1,44.3,9.2,760.0,16.1,45.5,43.1,44.7,5.1,2.4,55.3,0.62,34.7,19.6,6.9,47.0,33.3,13.6,1.0,49.2632866,-123.24586939010037,0.0,0.0,0,0,1,1,1,1,1,0,0.5025125628140703,0.0,1.0,0.0,1.0050251256281406
Queen's Park Care Centre,9A5GG,Fraser Health,HA,315 McBride Blvd.,New Westminster,V3L5E8,Hospital Act,Unknown,148,0.0,84.0,64.1,58.6,9.6,548.0,11.8,38.7,22.0,51.8,6.0,2.7,50.3,0.58,2.5,20.0,2.3,36.7,13.2,7.1,1.0,49.2158542,-122.9036695,6.0,1.0,1,1,1,1,1,1,1,0,0.0,0.0,5.5,1.351351351351351,2.702702702702703
Renfrew Care Centre,9193F,Vancouver Coastal Health,PFP,1880 Renfrew Street,Vancouver,V5M3H9,Community Care & Assisted Living Act,Accredited,106,0.9,84.0,58.8,56.6,3.5,,15.9,42.4,39.4,74.9,9.2,3.1,41.2,0.57,0.0,65.0,0.5,29.0,24.7,6.6,1.0,49.26786,-123.044,0.0,0.0,0,1,0,1,1,1,1,0,0.0,0.0,14.1,0.0,0.0
Richmond Lions Manor,99BGD,Vancouver Coastal Health,HA,9020 Bridgeport Road,Richmond,V6X1S1,Community Care & Assisted Living Act,Accredited,93,0.0,87.0,72.0,63.1,2.5,,18.0,21.8,37.8,58.2,8.8,2.2,59.5,0.61,37.1,10.9,43.9,40.5,29.5,3.2,4.0,49.191493200000004,-123.1252982423324,1.0,0.0,1,1,0,1,1,1,1,0,1.0752688172043012,1.0752688172043012,11.9,1.0752688172043012,2.150537634408602
Rosemary Heights Seniors Village,935CA,Fraser Health,PFP,15240-34th Avenue,Surrey,V3Z2J9,Community Care & Assisted Living Act,Accredited,90,1.1,86.0,67.7,58.4,1.1,,17.0,20.7,39.0,73.1,6.5,3.0,39.9,0.56,3.1,48.0,0.0,45.8,15.5,1.6,4.0,49.0635552,-122.80060060000001,0.0,0.0,0,1,0,1,1,0,0,1,1.1111111111111112,0.0,32.1,2.2222222222222223,5.5555555555555545
Rosewood Manor,9ADI4,Vancouver Coastal Health,PNP,6260 Blundell Rd,Richmond,V7C5C4,Community Care & Assisted Living Act,Not Accredited,151,0.0,85.0,62.7,55.4,1.4,,23.0,28.9,17.0,67.1,7.0,3.2,28.5,0.5,19.8,60.2,0.2,38.1,28.5,0.9,1.0,49.1551041,-123.1553156,0.0,0.0,0,0,0,0,1,1,1,0,0.0,0.0,21.2,0.0,2.6490066225165565
Royal Arch Masonic Home,9AAG7,Vancouver Coastal Health,PNP,7850 Champlain Cresc,Vancouver,V5S4C7,Community Care & Assisted Living Act,Not Accredited,151,1.3,86.0,60.1,61.0,4.2,,17.4,37.1,21.6,61.9,6.2,3.4,29.4,0.54,15.5,83.7,13.4,41.2,23.4,5.1,1.0,49.213532799999996,-123.0288043,37.0,12.0,1,0,0,0,1,1,1,0,0.0,0.0,24.6,0.0,0.0
Royal Ascot Care Centre,917JC,Vancouver Coastal Health,PFP,2455 East Broadway,Vancouver,V5M1Y1,Hospital Act,Not Accredited,82,1.2,85.0,74.5,60.7,3.4,708.0,36.6,31.5,32.7,68.5,6.5,3.1,37.2,0.56,0.3,0.0,3.0,54.8,9.3,0.0,2.0,49.26239535,-123.0555417,0.0,0.0,0,1,0,1,1,1,1,1,1.2195121951219512,0.0,15.8,0.0,2.4390243902439024
Royal City Manor,91JJ3,Fraser Health,PFP,77 Jamieson Court,New Westminster,V3L5P8,Community Care & Assisted Living Act,Accredited,165,0.0,85.0,58.1,62.2,4.1,643.0,31.4,23.1,20.5,73.3,5.2,2.6,49.2,0.58,5.0,14.0,0.0,35.3,10.0,0.0,12.0,49.2153153,-122.8951618,0.0,0.0,0,1,0,1,1,1,1,1,3.636363636363636,1.2121212121212122,8.499999999999998,0.0,1.2121212121212122
Shorncliffe,9AHA5,Vancouver Coastal Health,HA,5847 Medusa Street,Sechelt,V0N3A0,Community Care & Assisted Living Act,Accredited,59,0.0,83.0,59.6,52.8,2.0,782.0,15.1,30.1,42.9,67.6,3.7,2.7,46.6,0.53,0.0,5.9,2.7,41.1,36.9,6.5,2.0,49.474191,-123.765,0.0,0.0,0,0,0,0,1,1,1,0,0.0,0.0,3.4,1.6949152542372878,15.254237288135593
Simon K.Y. Lee Seniors Care Home,926I0,Vancouver Coastal Health,PNP,555 Carrall Street,Vancouver,V6B2J8,Community Care & Assisted Living Act,Unknown,114,0.0,88.0,70.8,72.9,2.5,,18.0,36.7,22.8,67.2,10.4,3.1,37.0,0.55,16.7,0.2,0.7,33.0,20.8,6.5,6.0,49.281478799999995,-123.1043333,0.0,0.0,0,1,0,1,1,1,1,1,1.7543859649122806,0.8771929824561403,8.9,0.0,2.631578947368421
St. Jude's Anglican Home,999GE,Vancouver Coastal Health,PNP,810 West 27th Avenue,Vancouver,V5Z2G7,Community Care & Assisted Living Act,Not Accredited,55,1.8,85.0,83.1,62.9,2.4,638.0,31.3,45.5,42.9,71.0,14.7,2.8,47.8,0.58,0.0,84.4,0.9,47.8,39.5,10.8,3.0,49.2468877,-123.12273259999999,0.0,0.0,0,1,0,1,1,1,1,1,0.0,0.0,7.3,0.0,5.454545454545454
St. Michael's Centre,9A9FB,Fraser Health,PNP,7451 Sussex Avenue,Burnaby,V5J5C2,Hospital Act,Not Accredited,144,0.0,84.0,63.5,53.8,3.0,603.0,16.9,41.0,23.5,59.4,7.7,2.0,64.6,0.63,0.8,43.3,18.5,45.6,17.1,15.3,7.0,49.215722799999995,-123.00524240000001,0.0,0.0,0,1,1,1,1,1,1,0,1.3888888888888888,0.0,6.3,0.6944444444444444,2.7777777777777777
St. Vincent's - Brock Fahrni Pavilion,9A587,Vancouver Coastal Health,PNP,4650 Oak St.,Vancouver,V6H4J4,Hospital Act,Accredited,148,0.0,83.0,32.8,55.1,8.9,741.0,25.7,34.5,30.4,53.2,4.9,2.0,68.7,0.59,1.4,0.2,0.7,36.9,16.5,2.7,3.0,49.243243799999995,-123.12301099560094,0.0,0.0,0,1,1,1,1,0,0,0,0.0,0.0,4.1,0.0,1.351351351351351
St. Vincent's - Langara,9C05H,Vancouver Coastal Health,PNP,255 W 62nd Ave,Vancouver,V5X4V4,Hospital Act,Accredited,197,0.5,85.0,75.1,56.0,4.5,,21.2,40.5,37.6,55.7,4.6,2.2,62.0,0.61,12.5,4.3,6.3,31.8,16.2,3.9,2.0,49.2147869,-123.11081877119535,0.0,0.0,0,1,1,1,1,1,1,0,0.0,0.0,10.1,0.0,1.0152284263959392
Suncreek Village,9370A,Fraser Health,PFP,13687 62nd Avenue,Surrey,V3X0B5,Community Care & Assisted Living Act,Unknown,134,0.0,82.0,65.0,50.1,9.8,849.0,20.0,46.2,34.9,59.8,10.3,1.5,75.6,0.59,50.6,55.4,4.4,52.6,35.3,1.4,5.0,49.1156408,-122.8450108,0.0,0.0,0,0,0,0,1,1,1,1,0.7462686567164178,0.0,13.4,0.0,0.7462686567164178
Tabor Home,98H94,Fraser Health,PNP,31944 Sunrise Cres,Abbotsford,V2T1N5,Community Care & Assisted Living Act,Unknown,118,0.8,90.0,73.6,76.1,2.8,804.0,17.3,10.2,31.6,76.9,8.2,3.2,38.6,0.57,28.8,15.1,0.0,56.1,33.6,4.9,2.0,49.047016,-122.338899,1.0,1.0,1,1,0,1,1,1,1,0,1.6949152542372878,0.0,11.8,0.0,0.0
The Cascades Care Community,9A599,Fraser Health,PFP,45586 Mcintosh Drive,Chilliwack,V2P7W8,Community Care & Assisted Living Act,Unknown,119,0.0,88.0,66.0,72.3,3.4,710.0,14.8,27.7,29.6,66.6,13.8,2.2,64.2,0.6,0.2,1.9,0.0,59.4,20.0,7.1,1.0,49.1608031,-121.96569009999999,0.0,0.0,0,1,0,1,1,1,1,1,0.0,0.0,16.7,0.0,1.680672268907563
The Madison Care Centre,935IA,Fraser Health,PFP,1399 Foster Avenue,Coquitlam,V3J2N1,Hospital Act,Not Accredited,137,0.0,89.0,87.0,79.7,0.0,,25.5,36.1,34.3,68.1,7.5,2.5,51.7,0.55,9.9,6.0,0.5,47.8,16.5,24.6,5.0,49.2568192,-122.89315220000002,0.0,0.0,0,1,0,1,1,1,1,1,4.37956204379562,0.7299270072992701,5.0,0.0,0.7299270072992701
The Mayfair,9C3GE,Fraser Health,PNP,33433 Marshall Road,Abbotsford,V2S1K8,Community Care & Assisted Living Act,Not Accredited,91,2.2,84.0,68.2,58.5,7.4,838.0,45.2,34.3,32.3,66.5,12.9,2.3,59.7,0.56,5.6,5.2,0.0,59.7,19.7,13.5,3.0,49.03936815,-122.29768336109244,0.0,0.0,0,1,0,1,1,1,1,1,1.0989010989010992,1.0989010989010992,17.6,1.0989010989010992,2.1978021978021984
The Residence at Clayton Heights,93CAA,Fraser Health,PFP,18788 71st Avenue,Surrey,V4N6L9,Community Care & Assisted Living Act,Not Accredited,87,0.0,83.0,42.2,47.8,1.7,632.0,20.6,34.1,16.6,72.5,15.2,2.5,53.3,0.57,1.7,22.3,1.1,50.4,28.1,0.5,3.0,49.1317703,-122.7026815,5.0,2.0,1,0,0,0,1,0,0,0,3.4482758620689653,1.1494252873563218,11.4,0.0,2.2988505747126435
The Residence at Morgan Heights,9375A,Fraser Health,PFP,15955 27th Avenue,Surrey,V3Z3W3,Community Care & Assisted Living Act,Not Accredited,116,0.0,89.0,67.4,78.0,1.4,,14.4,22.7,15.0,74.2,11.0,3.0,41.5,0.56,29.2,65.7,5.9,50.4,29.5,3.1,5.0,49.051178,-122.779875,0.0,0.0,0,1,0,1,0,1,0,1,3.4482758620689653,0.8620689655172413,2.6,0.0,0.8620689655172413
The Residence in Mission,93F40,Fraser Health,HA,7324 Hurd Street,Mission,V2V3H5,Community Care & Assisted Living Act,Unknown,200,0.5,85.0,62.6,57.7,4.1,869.0,23.9,31.6,31.9,58.0,13.0,2.4,56.2,0.57,4.7,48.0,1.4,52.8,35.1,1.6,7.0,49.135354,-122.330124,0.0,0.0,0,1,0,1,1,1,1,0,0.5,0.0,13.5,0.5,2.5
Three Links Care Centre,9AC12,Vancouver Coastal Health,PNP,2934 East 22nd Ave,Vancouver,V5M2Y4,Community Care & Assisted Living Act,Accredited,90,0.0,84.0,50.8,52.8,7.0,957.0,24.1,40.3,29.7,68.6,8.1,3.7,21.8,0.59,1.7,3.4,7.3,54.6,25.4,1.0,1.0,49.2503144,-123.0429307,0.0,0.0,0,0,0,0,1,1,1,0,0.0,0.0,17.8,0.0,0.0
Totem Lodge - Sechelt Hospital,9A563,Vancouver Coastal Health,HA,5544 Sunshine Coast Highway,Sechelt,V0N3A0,Hospital Act,Accredited,49,0.0,85.0,67.8,57.6,7.3,683.0,22.6,33.9,31.0,60.1,6.0,2.0,67.3,0.59,4.8,0.0,0.0,49.4,16.0,14.8,1.0,49.50828092664089,-123.89803176719371,0.0,0.0,0,1,1,1,1,1,1,0,0.0,0.0,2.0,0.0,10.20408163265306
Valhaven Rest Home,98H9F,Fraser Health,PNP,4212 Balmoral St,Abbotsford,V4X1Y5,Community Care & Assisted Living Act,Accredited,26,0.0,91.0,73.7,82.5,1.5,,4.3,27.7,21.3,74.5,10.6,3.8,28.7,0.62,14.9,0.0,0.0,53.2,29.3,5.3,3.0,49.0789671,-122.38571529999999,9.0,1.0,1,0,0,0,1,1,1,1,3.8461538461538463,0.0,7.7,0.0,19.230769230769234
Valleyhaven,98HA8,Fraser Health,PFP,45450 Menholm Rd.,Chilliwack,V2P1M2,Community Care & Assisted Living Act,Accredited,91,0.0,87.0,63.5,66.4,3.7,576.0,18.8,19.9,25.7,61.0,9.2,2.4,50.7,0.55,8.5,69.9,0.0,48.2,19.6,6.0,2.0,49.1664458,-121.96614440000002,0.0,0.0,0,1,0,1,1,1,1,1,3.296703296703297,0.0,19.8,0.0,2.1978021978021984
Villa Carital,9198G,Vancouver Coastal Health,PNP,3050 Penticton St,Vancouver,V5M4W2,Community Care & Assisted Living Act,Not Accredited,81,0.0,88.0,81.2,73.5,1.1,,39.3,37.4,45.1,68.7,17.2,2.4,54.3,0.61,14.7,90.5,2.5,69.9,41.9,5.0,2.0,49.256583899999995,-123.0521465,0.0,0.0,0,1,0,1,1,1,1,1,1.2345679012345678,0.0,17.3,0.0,0.0
Villa Cathay Care Home,999II,Vancouver Coastal Health,PNP,970 Union Street,Vancouver,V6A3V1,Community Care & Assisted Living Act,Not Accredited,134,0.0,89.0,79.2,77.0,0.6,,16.3,44.8,13.0,50.2,3.7,3.5,33.9,0.53,0.0,0.4,0.2,28.5,15.6,11.4,2.0,49.277208,-123.084,1.0,0.0,1,1,0,1,1,1,1,1,0.0,0.0,2.2,0.0,0.0
Waverly Seniors Village,922DF,Fraser Health,PFP,8445 Young Rd,Chilliwack,V2P4P2,Community Care & Assisted Living Act,Accredited,53,3.8,87.0,74.2,77.4,5.0,511.0,31.1,36.1,29.4,73.1,10.1,2.9,32.8,0.6,0.8,62.2,0.0,47.9,27.3,15.5,3.0,49.155592999999996,-121.95191000000001,0.0,0.0,0,1,0,1,1,1,1,1,1.8867924528301887,1.8867924528301887,11.4,1.8867924528301887,13.20754716981132
West Shore Laylum,9927D,Fraser Health,PFP,4900 Central Ave,Delta,V4K2G7,Community Care & Assisted Living Act,Not Accredited,55,0.0,89.0,76.1,72.9,0.0,304.0,38.6,30.7,29.7,69.3,8.9,1.7,73.3,0.52,29.7,68.3,0.0,49.5,21.5,12.0,0.0,49.0482742,-122.79775420000001,0.0,0.0,0,1,0,1,1,1,1,0,0.0,0.0,1.8,0.0,0.0
West Vancouver Care Centre,9B9IG,Vancouver Coastal Health,PFP,1675 27th Street,West Vancouver,V7V4K9,Hospital Act,Unknown,78,0.0,87.0,75.4,70.4,1.8,987.0,26.1,30.7,21.8,60.4,2.5,2.6,52.5,0.58,34.6,3.9,3.2,52.9,27.7,3.2,1.0,49.3404055,-123.18877820000002,0.0,0.0,0,1,1,1,1,1,1,1,0.0,0.0,10.3,0.0,2.564102564102564
White Rock Seniors Village,993I1,Fraser Health,PFP,1183 Maple Street,White Rock,V8B5K9,Community Care & Assisted Living Act,Accredited,71,1.4,89.0,84.3,71.9,0.0,405.0,26.6,27.0,30.3,79.1,15.6,3.8,21.7,0.57,20.9,61.9,7.4,55.7,26.8,24.8,6.0,49.0236424,-122.78915020000001,0.0,0.0,0,1,0,1,1,1,1,1,0.0,0.0,11.3,2.8169014084507045,12.676056338028168
William Rudd House,91828,Fraser Health,HA,95 Blackberry Drive,New Westminster,V3L5S7,Hospital Act,Unknown,12,0.0,46.0,48.5,0.0,93.9,,8.2,34.7,0.0,0.0,0.0,4.5,12.2,0.69,10.2,67.3,10.2,59.2,1.6,19.5,1.0,49.21725645,-122.90105809581377,0.0,0.0,0,0,0,0,1,0,0,0,0.0,0.0,0.0,0.0,25.0
Willingdon Care Centre,9B79H,Fraser Health,PFP,4435 Grange St,Burnaby,V5H1P4,Hospital Act,Unknown,95,1.1,89.0,77.0,72.3,2.0,907.0,19.4,27.8,8.9,61.2,1.0,2.9,44.9,0.56,3.7,26.0,2.4,28.1,9.9,2.4,1.0,49.23233265,-123.00484883141232,0.0,0.0,0,1,1,1,1,0,0,0,0.0,0.0,12.6,0.0,4.2105263157894735
Willingdon Creek Village,93FB0,Vancouver Coastal Health,HA,4980 Kiwanis Drive,Powell River,V8A5H5,Community Care & Assisted Living Act,Accredited,102,0.0,83.0,64.0,52.0,4.2,664.0,21.3,23.4,32.9,75.3,14.4,2.6,51.2,0.55,0.3,0.3,0.0,60.4,51.0,34.3,1.0,49.849859,-124.51899999999999,0.0,0.0,0,0,0,0,1,1,1,0,0.9803921568627452,0.0,4.9,0.0,3.92156862745098
Windermere Care Centre,9C2G9,Vancouver Coastal Health,PFP,900 West 12th Avenue,Vancouver,V5Z1N3,Community Care & Assisted Living Act,Not Accredited,210,1.0,87.0,78.2,61.0,0.5,959.0,22.9,26.8,7.0,64.0,2.6,4.6,0.4,0.54,5.8,2.6,0.0,41.8,15.3,4.4,1.0,49.260325,-123.125,14.0,1.0,1,1,0,1,1,1,1,1,0.0,0.0,13.4,0.0,0.0
Yaletown House,9B0I5,Vancouver Coastal Health,PNP,1099 Cambie Street,Vancouver,V6B5A8,Community Care & Assisted Living Act,Not Accredited,127,0.0,82.0,51.9,45.9,10.4,,27.6,26.7,40.9,72.6,8.1,4.0,20.7,0.52,10.7,63.7,0.4,48.8,17.3,10.6,4.0,49.275271999999994,-123.119,0.0,0.0,0,0,0,0,1,1,1,0,0.0,0.0,14.2,0.0,1.574803149606299
Youville Residence,99A15,Vancouver Coastal Health,PNP,4950 Heather Street,Vancouver,V5Z3L9,Community Care & Assisted Living Act,Accredited,42,0.0,79.0,60.0,29.7,8.6,,24.2,31.7,61.5,82.6,20.5,1.2,83.2,0.59,23.0,5.6,18.6,54.7,49.6,5.2,5.0,49.24058,-123.12,0.0,0.0,0,0,0,0,1,1,1,0,0.0,0.0,9.5,0.0,11.904761904761903
Zion Park Manor,99444,Fraser Health,PNP,5939-180th St,Surrey,V3S4L2,Community Care & Assisted Living Act,Not Accredited,99,0.0,85.0,70.6,61.4,1.2,,13.9,23.2,23.2,55.1,8.6,3.0,40.7,0.57,0.5,0.0,2.3,47.0,8.2,2.7,1.0,49.1101454,-122.72421499999999,0.0,0.0,0,0,0,0,1,1,1,1,0.0,0.0,11.1,0.0,2.0202020202020203
Harmony Court Care Centre,91BCE,Fraser Health,PFP,7195 Canada Way,Burnaby,V5E3R7,Community Care & Assisted Living Act,Unknown,80,0.0,84.6875,78.19375,58.34375,3.15625,782.6875,14.2875,30.3875,28.6375,83.275,8.5,2.63125,51.05,0.515625,1.4875,71.125,0.0,43.18125,16.35625,13.26875,2.0,49.224537,-122.942499,0.0,0.0,0,1,0,1,0,1,0,0,2.5,0.0,25.5,0.0,0.0
Berkley Care Centre,91GB3,Vancouver Coastal Health,HA,2444 Burr Place,North Vancouver,V7H3A5,Community Care & Assisted Living Act,Accredited,189,0.6,83.61904761904762,59.179365079365084,55.1,6.963492063492064,,23.350793650793648,47.312698412698424,52.95555555555556,67.36349206349206,12.146031746031747,2.0619047619047617,66.53492063492064,0.5768253968253969,14.984126984126986,64.60952380952381,4.5888888888888895,58.15238095238095,34.495238095238086,27.6,1.0,49.312278000000006,-123.006,25.0,5.0,1,1,0,1,1,1,1,0,0.0,0.0,3.4,0.0,2.1164021164021163
Fair Haven - Vancouver,999HG,Vancouver Coastal Health,PNP,2720 East 48th Ave.,Vancouver,V5S1G7,Community Care & Assisted Living Act,Accredited,101,0.0,83.24752475247523,58.595049504950495,50.07821782178217,2.374257425742574,,17.055445544554452,38.82277227722773,39.16435643564356,74.25247524752477,12.842574257425742,2.7306930693069305,47.84554455445543,0.5805940594059406,8.200990099009902,66.1950495049505,3.0039603960396044,51.51287128712872,35.13069306930693,13.15940594059406,3.0,49.225452000000004,-123.03658429999999,0.0,0.0,0,1,0,1,1,1,1,0,0.99009900990099,0.99009900990099,14.6,0.0,7.920792079207921
